{
  "stores":[
    {
      "id": 0,
      "lat":51.5869900,
      "lon":4.7749100,
      "name":"Albert Heijn - Nieuwstraat",
      "open":"8:00",
      "close":"21:00",
      "products":"0, 3, 6, 9"
    },
    {
      "id": 1,
      "lat":51.58553,
      "lon":4.77659,
      "name":"Jumbo - Ginnekenstraat",
      "open":"8:30",
      "close":"20:00",
      "products":"1, 4, 7, 10"
    },
    {
      "id": 2,
      "lat":51.58766,
      "lon":4.77703,
      "name":"Coop - Sint Janstraat",
      "open":"9:00",
      "close":"22:00",
      "products":"2, 5, 8, 11"
    },
    {
      "id": 3,
      "lat":51.58917,
      "lon":4.77374,
      "name":"Albert Heijn - Havermarkt",
      "open":"8:00",
      "close":"21:00",
      "products":"0, 3, 6, 9"
    },
    {
      "id": 4,
      "lat":51.58249,
      "lon":4.77944,
      "name":"Jumbo - Van Goorstraat",
      "open":"8:30",
      "close":"20:00",
      "products":"1, 4, 7, 10"
    },
    {
      "id": 5,
      "lat":51.58402,
      "lon":4.79586,
      "name":"Coop - Hogeschoollaan",
      "open":"9:00",
      "close":"22:00",
      "products":"2, 5, 8, 11"
    },
    {
      "id": 6,
      "lat":51.59003,
      "lon":4.77603,
      "name":"Albert Heijn - Kasteelplein",
      "open":"8:00",
      "close":"21:00",
      "products":"0, 3, 6, 9"
    },
    {
      "id": 7,
      "lat":51.58884,
      "lon":4.78084,
      "name":"Jumbo - Vlaszak",
      "open":"8:30",
      "close":"20:00",
      "products":"1, 4, 7, 10"
    },
    {
      "id": 8,
      "lat":51.58108,
      "lon":4.78304,
      "name":"Coop - Wilhelminapark",
      "open":"9:00",
      "close":"22:00",
      "products":"2, 5, 8, 11"
    },
    {
      "id": 9,
      "lat":51.587,
      "lon":4.79723,
      "name":"Albert Heijn - Beverweg",
      "open":"8:00",
      "close":"21:00",
      "products":"0, 3, 6, 9"
    },
    {
      "id": 10,
      "lat":51.59152,
      "lon":4.79529,
      "name":"Jumbo - Bisonstraat",
      "open":"8:30",
      "close":"20:00",
      "products":"1, 4, 7, 10"
    },
    {
      "id": 11,
      "lat":51.59002,
      "lon":4.77386,
      "name":"Coop - Kraanstraat",
      "open":"9:00",
      "close":"22:00",
      "products":"2, 5, 8, 11"
    },
    {
      "id": 12,
      "lat":51.58116,
      "lon":4.76717,
      "name":"Albert Heijn - Clausstraat",
      "open":"8:00",
      "close":"21:00",
      "products":"0, 3, 6, 9"
    },
    {
      "id": 13,
      "lat":51.57988,
      "lon":4.7622,
      "name":"Jumbo - Verlaatstraat",
      "open":"8:30",
      "close":"20:00",
      "products":"1, 4, 7, 10"
    },
    {
      "id": 14,
      "lat":51.57592,
      "lon":4.77987,
      "name":"Coop - Maanstraat",
      "open":"9:00",
      "close":"22:00",
      "products":"2, 5, 8, 11"
    }
  ]
}